{"type":"FeatureCollection","crs":{"type":"name","properties":{"name":"EPSG:4326"}},"features":[{"type":"Feature","id":1,"geometry":{"type":"Point","coordinates":[-77.048729857806009,38.918175463639031]},"properties":{"OBJECTID":1,"EMB_TITLE":"Embassy of the People's Democratic Republic of Algeria","COUNTRY":"Algeria","ADDRESS":"2118 KALORAMA ROAD NW","TELEPHONE":"(202) 265-2800","WEBURL":"http://www.algeria-us.org/","GIS_ID":"Emb_63","X":395774.26000000001,"Y":138923.19,"ADDRID":234982}},{"type":"Feature","id":2,"geometry":{"type":"Point","coordinates":[-77.055496900727832,38.899651547363277]},"properties":{"OBJECTID":2,"EMB_TITLE":"Embassy of Libya","COUNTRY":"Libya","ADDRESS":"2600 VIRGINIA AVENUE NW","TELEPHONE":"(202) 944-9601","WEBURL":"http://www.libyausaembassy.com/","GIS_ID":null,"X":395186.16000000003,"Y":136867.22,"ADDRID":279603}},{"type":"Feature","id":3,"geometry":{"type":"Point","coordinates":[-77.060831518062614,38.903128556688358]},"properties":{"OBJECTID":3,"EMB_TITLE":"Embassy of the Republic of South Sudan","COUNTRY":"South Sudan","ADDRESS":"1015 31ST STREET NW","TELEPHONE":"(202) 293-7940","WEBURL":"http://www.gossmission.org/goss/","GIS_ID":null,"X":396140.67999999999,"Y":137650.38,"ADDRID":243288}},{"type":"Feature","id":4,"geometry":{"type":"Point","coordinates":[-77.085975096198723,38.933203568377238]},"properties":{"OBJECTID":4,"EMB_TITLE":"Embassy of Antigua and Barbuda","COUNTRY":"Antigua & Barbuda","ADDRESS":"3216 NEW MEXICO AVENUE NW","TELEPHONE":"(202) 362-5122","WEBURL":"http://www.embassy.org/embassies/ag.html","GIS_ID":"Emb_15","X":392545.85999999999,"Y":140593.82000000001,"ADDRID":265490}},{"type":"Feature","id":5,"geometry":{"type":"Point","coordinates":[-77.042339078912676,38.911388730702221]},"properties":{"OBJECTID":5,"EMB_TITLE":"Embassy of Argentina","COUNTRY":"Argentina","ADDRESS":"1600 NEW HAMPSHIRE AVENUE NW","TELEPHONE":"(202) 238-6400","WEBURL":"http://www.embassyofargentina.us/","GIS_ID":"Emb_65","X":396328.13,"Y":138169.53,"ADDRID":241243}},{"type":"Feature","id":6,"geometry":{"type":"Point","coordinates":[-77.037035353892193,38.908013393726485]},"properties":{"OBJECTID":6,"EMB_TITLE":"Embassy of Australia","COUNTRY":"Australia","ADDRESS":"1601 MASSACHUSETTS AVENUE NW","TELEPHONE":"(202) 797-3000","WEBURL":"http://www.usa.embassy.gov.au/","GIS_ID":"Emb_66","X":396787.97000000003,"Y":137794.64000000001,"ADDRID":279241}},{"type":"Feature","id":7,"geometry":{"type":"Point","coordinates":[-77.049832097944275,38.911544592229937]},"properties":{"OBJECTID":7,"EMB_TITLE":"Embassy of the Commonwealth of the Bahamas","COUNTRY":"Bahamas","ADDRESS":"2220 MASSACHUSETTS AVENUE NW","TELEPHONE":"(202) 319-2660","WEBURL":"http://www.embassy.org/embassies/bs.html","GIS_ID":"Emb_67","X":395678.27000000002,"Y":138187.16,"ADDRID":279574}},{"type":"Feature","id":8,"geometry":{"type":"Point","coordinates":[-77.048764444773013,38.916985628615294]},"properties":{"OBJECTID":8,"EMB_TITLE":"Embassy of Barbados","COUNTRY":"Barbados","ADDRESS":"2144 WYOMING AVENUE NW","TELEPHONE":"(202) 939-9200","WEBURL":"http://www.embassy.org/embassies/bb.html","GIS_ID":"Emb_68","X":395771.19,"Y":138791.11000000002,"ADDRID":277150}},{"type":"Feature","id":9,"geometry":{"type":"Point","coordinates":[-77.040715616019156,38.91213763070094]},"properties":{"OBJECTID":9,"EMB_TITLE":"Embassy of the Republic of Belarus","COUNTRY":"Belarus","ADDRESS":"1619 NEW HAMPSHIRE AVENUE NW","TELEPHONE":"(202) 986-1805","WEBURL":"http://usa.mfa.gov.by/en/embassy/","GIS_ID":"Emb_69","X":396468.97000000003,"Y":138252.60000000001,"ADDRID":241664}},{"type":"Feature","id":10,"geometry":{"type":"Point","coordinates":[-77.065922516069733,38.92711995316354]},"properties":{"OBJECTID":10,"EMB_TITLE":"Embassy of Belgium","COUNTRY":"Belgium","ADDRESS":"3330 GARFIELD STREET NW","TELEPHONE":"(202) 333-6900","WEBURL":"http://www.diplobel.us/","GIS_ID":"Emb_70","X":394284,"Y":139917.04000000001,"ADDRID":220321}},{"type":"Feature","id":11,"geometry":{"type":"Point","coordinates":[-77.049065111958953,38.918071907696024]},"properties":{"OBJECTID":11,"EMB_TITLE":"Embassy of the Republic of Benin","COUNTRY":"Benin","ADDRESS":"2124 KALORAMA ROAD NW","TELEPHONE":"(202) 232-6656","WEBURL":"http://www.beninembassy.us/","GIS_ID":"Emb_71","X":395745.17999999999,"Y":138911.70999999999,"ADDRID":277145}},{"type":"Feature","id":12,"geometry":{"type":"Point","coordinates":[-77.061073764013955,38.919318586463923]},"properties":{"OBJECTID":12,"EMB_TITLE":"Embassy of Bolivia","COUNTRY":"Bolivia","ADDRESS":"3014 MASSACHUSETTS AVENUE NW","TELEPHONE":"(202) 483-4410","WEBURL":"http://www.bolivia-usa.org/","GIS_ID":"Emb_72","X":394703.85999999999,"Y":139050.73000000001,"ADDRID":294552}},{"type":"Feature","id":13,"geometry":{"type":"Point","coordinates":[-77.060890228125317,38.918963483758723]},"properties":{"OBJECTID":13,"EMB_TITLE":"Embassy of Brazil","COUNTRY":"Brazil","ADDRESS":"3006 MASSACHUSETTS AVENUE NW","TELEPHONE":"(202) 238-2700","WEBURL":"http://washington.itamaraty.gov.br/en-us/","GIS_ID":"Emb_73","X":394719.75,"Y":139011.29999999999,"ADDRID":284549}},{"type":"Feature","id":14,"geometry":{"type":"Point","coordinates":[-77.048551791993233,38.91238002441559]},"properties":{"OBJECTID":14,"EMB_TITLE":"Embassy of the Republic of Bulgaria","COUNTRY":"Bulgaria","ADDRESS":"1621 22ND STREET NW","TELEPHONE":"(202) 387-0174","WEBURL":"http://www.bulgaria-embassy.org/","GIS_ID":"Emb_74","X":395789.35999999999,"Y":138279.84,"ADDRID":234908}},{"type":"Feature","id":15,"geometry":{"type":"Point","coordinates":[-77.036800218470972,38.945891176182002]},"properties":{"OBJECTID":15,"EMB_TITLE":"The Royal Embassy of Cambodia","COUNTRY":"Cambodia","ADDRESS":"4530 16TH STREET NW","TELEPHONE":"(202) 726-7742","WEBURL":"http://www.embassyofcambodia.org/","GIS_ID":"Emb_75","X":396810.06,"Y":141999.39000000001,"ADDRID":258700}},{"type":"Feature","id":16,"geometry":{"type":"Point","coordinates":[-77.064401817226113,38.94179092195516]},"properties":{"OBJECTID":16,"EMB_TITLE":"Embassy of Cameroon","COUNTRY":"Cameroon","ADDRESS":"3400 INTERNATIONAL DRIVE NW","TELEPHONE":"(202) 265-8790","WEBURL":"http://www.cameroonembassyusa.org/","GIS_ID":"Emb_76","X":394417.01000000001,"Y":141545.55000000002,"ADDRID":301239}},{"type":"Feature","id":17,"geometry":{"type":"Point","coordinates":[-77.018351244005885,38.89280450464824]},"properties":{"OBJECTID":17,"EMB_TITLE":"Embassy of Canada","COUNTRY":"Canada","ADDRESS":"501 PENNSYLVANIA AVENUE NW","TELEPHONE":"(202) 682-1740","WEBURL":"http://www.canadianembassy.org/","GIS_ID":"Emb_77","X":398408.17999999999,"Y":136105.84,"ADDRID":279806}},{"type":"Feature","id":18,"geometry":{"type":"Point","coordinates":[-77.052447875925623,38.913048020543378]},"properties":{"OBJECTID":18,"EMB_TITLE":"Embassy of the Kyrgyz Republic","COUNTRY":"Kyrgyzstan","ADDRESS":"2360 MASSACHUSETTS AVENUE NW","TELEPHONE":"(202) 449-9822","WEBURL":"http://www.kgembassy.org/","GIS_ID":"Emb_28","X":395451.5,"Y":138354.17999999999,"ADDRID":218985}},{"type":"Feature","id":19,"geometry":{"type":"Point","coordinates":[-77.053737593694208,38.914036550198325]},"properties":{"OBJECTID":19,"EMB_TITLE":"Embassy of the Republic of Cote D'Ivoire (Ivory Coast)","COUNTRY":"Cote D'Ivoire","ADDRESS":"2424 MASSACHUSETTS AVENUE NW","TELEPHONE":"(202) 797-0300","WEBURL":"http://www.embassy.org/embassies/ci.html","GIS_ID":null,"X":395339.71000000002,"Y":138463.98000000001,"ADDRID":285532}},{"type":"Feature","id":20,"geometry":{"type":"Point","coordinates":[-77.036103749626037,38.924370118250536]},"properties":{"OBJECTID":20,"EMB_TITLE":"Embassy of Cuba","COUNTRY":"Cuba","ADDRESS":"2639 16TH STREET NW","TELEPHONE":"(202) 797-8609","WEBURL":"http://cubaembassy.us/","GIS_ID":null,"X":396869.48999999999,"Y":139610.34,"ADDRID":235841}},{"type":"Feature","id":21,"geometry":{"type":"Point","coordinates":[-77.04857429893174,38.91190599611668]},"properties":{"OBJECTID":21,"EMB_TITLE":"Embassy of Estonia","COUNTRY":"Estonia","ADDRESS":"2131 MASSACHUSETTS AVENUE NW","TELEPHONE":"(202) 588-0101\n","WEBURL":"http://www.estemb.org/","GIS_ID":null,"X":395787.38,"Y":138227.22,"ADDRID":218635}},{"type":"Feature","id":22,"geometry":{"type":"Point","coordinates":[-77.039226660790646,38.904051796531675]},"properties":{"OBJECTID":22,"EMB_TITLE":"Embassy of the Republic of the Fiji","COUNTRY":"Fiji","ADDRESS":"1707 L ST NW","TELEPHONE":"(202) 466-8320\n","WEBURL":"http://www.fijiembassydc.com/","GIS_ID":null,"X":396067.41999999998,"Y":137485.26999999999,"ADDRID":240946}},{"type":"Feature","id":23,"geometry":{"type":"Point","coordinates":[-77.042739200581124,38.912399771399933]},"properties":{"OBJECTID":23,"EMB_TITLE":"Embassy of Georgia","COUNTRY":"Georgia","ADDRESS":"1824 R ST NW","TELEPHONE":"(202) 387-2390\n","WEBURL":"http://usa.mfa.gov.ge/index.php?lang_id=GEO&sec_id=38&lang_id=ENGsec_id=38","GIS_ID":null,"X":395721.5,"Y":138245.31,"ADDRID":234890}},{"type":"Feature","id":24,"geometry":{"type":"Point","coordinates":[-77.070392856757493,38.919374961147625]},"properties":{"OBJECTID":24,"EMB_TITLE":"Embassy of Iran","COUNTRY":"Iran","ADDRESS":"2209 WISCONSIN AVENUE NW","TELEPHONE":"(202) 965-4990\n","WEBURL":"http://www.daftar.org/Eng/default.asp?lang=eng","GIS_ID":null,"X":393895.71000000002,"Y":139057.57000000001,"ADDRID":284279}},{"type":"Feature","id":25,"geometry":{"type":"Point","coordinates":[-77.058840073343859,38.904275079243192]},"properties":{"OBJECTID":25,"EMB_TITLE":"Embassy of the Republic of Kosovo","COUNTRY":"Kosovo","ADDRESS":"1101 30TH STREET NW","TELEPHONE":"(202) 380-3581\n","WEBURL":"http://ambasada-ks.net/us/","GIS_ID":null,"X":394896.48999999999,"Y":137380.64999999999,"ADDRID":275730}},{"type":"Feature","id":26,"geometry":{"type":"Point","coordinates":[-77.058635749393304,38.901992194037724]},"properties":{"OBJECTID":26,"EMB_TITLE":"Embassy of Liechtenstein","COUNTRY":"Liechtenstein","ADDRESS":"2900 K STREET NW","TELEPHONE":"(202) 331-0590\n","WEBURL":"http://www.liechtensteinusa.org/","GIS_ID":null,"X":394914.04999999999,"Y":137127.22,"ADDRID":273874}},{"type":"Feature","id":27,"geometry":{"type":"Point","coordinates":[-77.036128188310627,38.908874065024811]},"properties":{"OBJECTID":27,"EMB_TITLE":"Embassy of the Republic of Kazakhstan","COUNTRY":"Kazakhstan","ADDRESS":"1401 16TH STREET NW","TELEPHONE":"(202) 232-5488","WEBURL":"http://www.kazakhembus.com/","GIS_ID":"Emb_103","X":396866.69,"Y":137890.14999999999,"ADDRID":242318}},{"type":"Feature","id":28,"geometry":{"type":"Point","coordinates":[-77.076715575024934,38.943469295122689]},"properties":{"OBJECTID":28,"EMB_TITLE":"Embassy of the Republic of China on Taiwan","COUNTRY":"Taiwan","ADDRESS":"4201 WISCONSIN AVENUE NW","TELEPHONE":"(202) 895-1800\n","WEBURL":"http://www.taiwanembassy.org/US/mp.asp?mp=12","GIS_ID":null,"X":393349.65000000002,"Y":141732.69,"ADDRID":222288}},{"type":"Feature","id":29,"geometry":{"type":"Point","coordinates":[-77.040547825313567,38.924458653295801]},"properties":{"OBJECTID":29,"EMB_TITLE":"Embassy of the Central African Republic","COUNTRY":"Central African Republic","ADDRESS":"2704 ONTARIO ROAD NW","TELEPHONE":"(202) 483-7800","WEBURL":"http://www.embassy.org/embassies/cf.html","GIS_ID":"Emb_78","X":396484.13,"Y":139620.33000000002,"ADDRID":235911}},{"type":"Feature","id":30,"geometry":{"type":"Point","coordinates":[-77.052915197040505,38.914281501931349]},"properties":{"OBJECTID":30,"EMB_TITLE":"Embassy of the Republic of Chad","COUNTRY":"Chad","ADDRESS":"2401 MASSACHUSETTS AVENUE NW","TELEPHONE":"(202) 652-1312","WEBURL":"http://embassyofchad.info/index.php/en/","GIS_ID":"Emb_79","X":395411.04999999999,"Y":138491.13,"ADDRID":218975}},{"type":"Feature","id":31,"geometry":{"type":"Point","coordinates":[-77.039825140530908,38.908005539628583]},"properties":{"OBJECTID":31,"EMB_TITLE":"Embassy of Chile","COUNTRY":"Chile","ADDRESS":"1732 MASSACHUSETTS AVENUE NW","TELEPHONE":"(202) 785-1746","WEBURL":"http://www.chile-usa.org/","GIS_ID":"Emb_80","X":396546,"Y":137793.87,"ADDRID":241756}},{"type":"Feature","id":32,"geometry":{"type":"Point","coordinates":[-77.066358591155364,38.942758161430206]},"properties":{"OBJECTID":32,"EMB_TITLE":"Embassy of the People's Republic of China","COUNTRY":"China","ADDRESS":"3505 INTERNATIONAL PLACE NW","TELEPHONE":"(202) 495-2266","WEBURL":"http://www.china-embassy.org/eng/","GIS_ID":"Emb_81","X":394237.92999999999,"Y":141644.57000000001,"ADDRID":301580}},{"type":"Feature","id":33,"geometry":{"type":"Point","coordinates":[-77.047292057407688,38.915418693445211]},"properties":{"OBJECTID":33,"EMB_TITLE":"Embassy of Colombia","COUNTRY":"Colombia","ADDRESS":"2118 LEROY PLACE NW","TELEPHONE":"(202) 387-8338","WEBURL":"http://www.colombiaemb.org/","GIS_ID":"Emb_82","X":395898.79000000004,"Y":138617.10000000001,"ADDRID":235084}},{"type":"Feature","id":34,"geometry":{"type":"Point","coordinates":[-77.040640229374546,38.90408014007464]},"properties":{"OBJECTID":34,"EMB_TITLE":"Embassy of the Democratic Republic of Congo","COUNTRY":"Congo, Democratic Rep.","ADDRESS":"1100 CONNECTICUT AVENUE NW","TELEPHONE":"(202) 234-7690","WEBURL":"http://www.ambardcusa.org/","GIS_ID":"Emb_83","X":396583.72000000003,"Y":137505.48000000001,"ADDRID":241792}},{"type":"Feature","id":35,"geometry":{"type":"Point","coordinates":[-77.047877149191706,38.913909558623857]},"properties":{"OBJECTID":35,"EMB_TITLE":"Embassy of Costa Rica","COUNTRY":"Costa Rica","ADDRESS":"2114 S STREET NW","TELEPHONE":"(202) 480-2200","WEBURL":"http://costarica-embassy.org/","GIS_ID":"Emb_84","X":395847.96000000002,"Y":138449.60000000001,"ADDRID":294538}},{"type":"Feature","id":36,"geometry":{"type":"Point","coordinates":[-77.052078410744556,38.913632827071133]},"properties":{"OBJECTID":36,"EMB_TITLE":"Embassy of the Republic of Croatia","COUNTRY":"Croatia","ADDRESS":"2343 MASSACHUSETTS AVENUE NW","TELEPHONE":"(202) 588-5899","WEBURL":"http://www.croatiaemb.org/","GIS_ID":"Emb_85","X":395483.58000000002,"Y":138419.08000000002,"ADDRID":218995}},{"type":"Feature","id":37,"geometry":{"type":"Point","coordinates":[-77.049395188529047,38.912825403620012]},"properties":{"OBJECTID":37,"EMB_TITLE":"Embassy of the Republic of Cyprus","COUNTRY":"Cyprus","ADDRESS":"2211 R STREET NW","TELEPHONE":"(202) 462-5772","WEBURL":"http://www.cyprusembassy.net/","GIS_ID":"Emb_86","X":395716.23999999999,"Y":138329.32000000001,"ADDRID":234926}},{"type":"Feature","id":38,"geometry":{"type":"Point","coordinates":[-77.048457465083175,38.913213965672035]},"properties":{"OBJECTID":38,"EMB_TITLE":"Embassy of the Dominican Republic","COUNTRY":"Dominican Republic","ADDRESS":"1715 22ND STREET NW","TELEPHONE":"(202) 332-6280","WEBURL":"http://www.domrep.org/","GIS_ID":"Emb_87","X":395797.59000000003,"Y":138372.41,"ADDRID":234916}},{"type":"Feature","id":39,"geometry":{"type":"Point","coordinates":[-77.059290251378954,38.903930264026357]},"properties":{"OBJECTID":39,"EMB_TITLE":"Embassy of Ecuador","COUNTRY":"Ecuador","ADDRESS":"1050 30TH STREET NW","TELEPHONE":"(202) 465-8140","WEBURL":"http://www.ecuador.org/","GIS_ID":"Emb_88","X":394857.41999999998,"Y":137342.39999999999,"ADDRID":293190}},{"type":"Feature","id":40,"geometry":{"type":"Point","coordinates":[-77.037074626953455,38.909075279039058]},"properties":{"OBJECTID":40,"EMB_TITLE":"Embassy of El Salvador","COUNTRY":"El Salvador","ADDRESS":"1400 16TH STREET NW","TELEPHONE":"(202) 595-7500","WEBURL":"http://www.elsalvador.org/","GIS_ID":"Emb_89","X":396784.60999999999,"Y":137912.51999999999,"ADDRID":242015}},{"type":"Feature","id":41,"geometry":{"type":"Point","coordinates":[-77.040722019455259,38.913053686629844]},"properties":{"OBJECTID":41,"EMB_TITLE":"Embassy of The State of Eritrea","COUNTRY":"Eritrea","ADDRESS":"1708 NEW HAMPSHIRE AVENUE NW","TELEPHONE":"(202) 319-1991","WEBURL":"http://www.embassyeritrea.org","GIS_ID":"Emb_90","X":396468.46000000002,"Y":138354.29000000001,"ADDRID":241639}},{"type":"Feature","id":42,"geometry":{"type":"Point","coordinates":[-77.065143813954833,38.924444828682141]},"properties":{"OBJECTID":42,"EMB_TITLE":"Embassy of Finland","COUNTRY":"Finland","ADDRESS":"3301 MASSACHUSETTS AVENUE NW","TELEPHONE":"(202) 298-5800","WEBURL":"http://www.finland.org/","GIS_ID":"Emb_91","X":394351.31,"Y":139620.03,"ADDRID":284623}},{"type":"Feature","id":43,"geometry":{"type":"Point","coordinates":[-77.07869041789759,38.91411474518307]},"properties":{"OBJECTID":43,"EMB_TITLE":"Embassy of France","COUNTRY":"France","ADDRESS":"4101 RESERVOIR ROAD NW","TELEPHONE":"(202) 944-6000","WEBURL":"http://www.info-france-usa.org","GIS_ID":"Emb_92","X":393175.64000000001,"Y":138474.23000000001,"ADDRID":294589}},{"type":"Feature","id":44,"geometry":{"type":"Point","coordinates":[-77.088837072520448,38.914534376508406]},"properties":{"OBJECTID":44,"EMB_TITLE":"Embassy of Germany","COUNTRY":"Germany","ADDRESS":"4645 RESERVOIR ROAD NW","TELEPHONE":"(202) 298-4000","WEBURL":"http://www.germany.info/Vertretung/usa/en/01__Embassy/Washington/__Home.html","GIS_ID":"Emb_93","X":395615.27000000002,"Y":137462.07000000001,"ADDRID":243314}},{"type":"Feature","id":45,"geometry":{"type":"Point","coordinates":[-77.049566959215738,38.91244995330635]},"properties":{"OBJECTID":45,"EMB_TITLE":"Embassy of Guatemala","COUNTRY":"Guatemala","ADDRESS":"2220 R STREET NW","TELEPHONE":"(202) 745-4952","WEBURL":"http://www.guatemala-embassy.org/","GIS_ID":"Emb_94","X":395701.32000000001,"Y":138287.64999999999,"ADDRID":218658}},{"type":"Feature","id":46,"geometry":{"type":"Point","coordinates":[-77.054159338535413,38.939340720077652]},"properties":{"OBJECTID":46,"EMB_TITLE":"Embassy of the Czech Republic","COUNTRY":"Czech Republic","ADDRESS":"3900 SPRING OF FREEDOM STREET NW","TELEPHONE":"(202) 274-9100","WEBURL":"http://www.mzv.cz/washington/","GIS_ID":"Emb_95","X":395304.79999999999,"Y":141272.98000000001,"ADDRID":294585}},{"type":"Feature","id":47,"geometry":{"type":"Point","coordinates":[-77.053222284713101,38.940286120700542]},"properties":{"OBJECTID":47,"EMB_TITLE":"Embassy of Hungary","COUNTRY":"Hungary","ADDRESS":"3910 SHOEMAKER STREET NW","TELEPHONE":"(202) 362-6730","WEBURL":"http://washington.kormany.hu/","GIS_ID":"Emb_96","X":395386.10000000003,"Y":141377.88,"ADDRID":284805}},{"type":"Feature","id":48,"geometry":{"type":"Point","coordinates":[-77.058635749393304,38.901992194037724]},"properties":{"OBJECTID":48,"EMB_TITLE":"Embassy of Iceland","COUNTRY":"Iceland","ADDRESS":"2900 K STREET NW","TELEPHONE":"(202) 265-6653","WEBURL":"http://www.iceland.is/iceland-abroad/us","GIS_ID":"Emb_14","X":394914.04999999999,"Y":137127.22,"ADDRID":273874}},{"type":"Feature","id":49,"geometry":{"type":"Point","coordinates":[-77.047026688492096,38.911324420088576]},"properties":{"OBJECTID":49,"EMB_TITLE":"Embassy of India","COUNTRY":"India","ADDRESS":"2107 MASSACHUSETTS AVENUE NW","TELEPHONE":"(202) 939-7000","WEBURL":"http://www.indianembassy.org/","GIS_ID":"Emb_98","X":395921.57000000001,"Y":138162.59,"ADDRID":294537}},{"type":"Feature","id":50,"geometry":{"type":"Point","coordinates":[-77.046274231586224,38.910246872180707]},"properties":{"OBJECTID":50,"EMB_TITLE":"Embassy of the Republic of Indonesia","COUNTRY":"Indonesia","ADDRESS":"2020 MASSACHUSETTS AVENUE NW","TELEPHONE":"(202) 775-5200","WEBURL":"http://www.embassyofindonesia.org/","GIS_ID":"Emb_99","X":395986.77000000002,"Y":138042.94,"ADDRID":294535}},{"type":"Feature","id":51,"geometry":{"type":"Point","coordinates":[-77.050212228529588,38.911686220798437]},"properties":{"OBJECTID":51,"EMB_TITLE":"Embassy of Ireland","COUNTRY":"Ireland","ADDRESS":"2234 MASSACHUSETTS AVENUE NW","TELEPHONE":"(202) 462-3939","WEBURL":"http://www.embassyofireland.org\r\n","GIS_ID":"Emb_100","X":395645.31,"Y":138202.89999999999,"ADDRID":234887}},{"type":"Feature","id":52,"geometry":{"type":"Point","coordinates":[-77.060536852676123,38.917808979351037]},"properties":{"OBJECTID":52,"EMB_TITLE":"Embassy of Italy","COUNTRY":"Italy","ADDRESS":"3000 WHITEHAVEN STREET NW","TELEPHONE":"(202) 612-4400","WEBURL":"http://www.ambwashingtondc.esteri.it/ambasciata_washington","GIS_ID":"Emb_101","X":394750.31,"Y":138883.12,"ADDRID":294549}},{"type":"Feature","id":53,"geometry":{"type":"Point","coordinates":[-77.056339599650741,38.915548004618223]},"properties":{"OBJECTID":53,"EMB_TITLE":"Embassy of Japan","COUNTRY":"Japan","ADDRESS":"2520 MASSACHUSETTS AVENUE NW","TELEPHONE":"(202) 238-6700","WEBURL":"http://www.us.emb-japan.go.jp/english/html/index.html","GIS_ID":"Emb_102","X":395114.15000000002,"Y":138631.89999999999,"ADDRID":285534}},{"type":"Feature","id":54,"geometry":{"type":"Point","coordinates":[-77.050685022064371,38.913879817898014]},"properties":{"OBJECTID":54,"EMB_TITLE":"Embassy of the Republic of the Union of Myanmar","COUNTRY":"Myanmar","ADDRESS":"2300 S STREET NW","TELEPHONE":"(202) 332-3344","WEBURL":"http://www.mewashingtondc.com/home_en.php","GIS_ID":"Emb_113","X":395604.44,"Y":138446.42999999999,"ADDRID":234953}},{"type":"Feature","id":55,"geometry":{"type":"Point","coordinates":[-77.041234758443025,38.911633972411948]},"properties":{"OBJECTID":55,"EMB_TITLE":"Embassy of the Republic of Namibia","COUNTRY":"Namibia","ADDRESS":"1605 NEW HAMPSHIRE AVENUE NW","TELEPHONE":"(202) 986-0540","WEBURL":"http://www.namibianembassyusa.org","GIS_ID":"Emb_114","X":396423.91999999998,"Y":138196.70999999999,"ADDRID":279246}},{"type":"Feature","id":56,"geometry":{"type":"Point","coordinates":[-77.047953354502752,38.91560813947774]},"properties":{"OBJECTID":56,"EMB_TITLE":"Embassy of Nepal","COUNTRY":"Nepal","ADDRESS":"2131 LEROY PLACE NW","TELEPHONE":"(202) 667-4550","WEBURL":"http://www.nepalembassyusa.org/","GIS_ID":"Emb_115","X":395841.45000000001,"Y":138638.16,"ADDRID":235057}},{"type":"Feature","id":57,"geometry":{"type":"Point","coordinates":[-77.056287947698564,38.944481467281598]},"properties":{"OBJECTID":57,"EMB_TITLE":"Royal Netherlands Embassy","COUNTRY":"Netherlands","ADDRESS":"4200 LINNEAN AVENUE NW","TELEPHONE":"(877) 388-2443","WEBURL":"http://dc.the-netherlands.org/","GIS_ID":"Emb_116","X":395120.60999999999,"Y":141843.76000000001,"ADDRID":223096}},{"type":"Feature","id":58,"geometry":{"type":"Point","coordinates":[-77.064182090983067,38.91900027768969]},"properties":{"OBJECTID":58,"EMB_TITLE":"Embassy of New Zealand","COUNTRY":"New Zealand","ADDRESS":"37 OBSERVATORY CIRCLE NW","TELEPHONE":"(202) 328-4800","WEBURL":"http://www.nzembassy.com/usa","GIS_ID":"Emb_117","X":394434.28000000003,"Y":139015.58000000002,"ADDRID":284778}},{"type":"Feature","id":59,"geometry":{"type":"Point","coordinates":[-77.040481316963877,38.912329769949444]},"properties":{"OBJECTID":59,"EMB_TITLE":"Embassy of the Republic of Nicaragua","COUNTRY":"Nicaragua","ADDRESS":"1627 NEW HAMPSHIRE AVENUE NW","TELEPHONE":"(202) 939-6531","WEBURL":"http://consuladodenicaragua.com/","GIS_ID":"Emb_118","X":396489.29999999999,"Y":138273.92000000001,"ADDRID":241666}},{"type":"Feature","id":60,"geometry":{"type":"Point","coordinates":[-77.049170861926385,38.912399764043435]},"properties":{"OBJECTID":60,"EMB_TITLE":"Embassy of Niger","COUNTRY":"Niger","ADDRESS":"2204 R STREET NW","TELEPHONE":"(202) 483-4224","WEBURL":"http://www.embassyofniger.org/","GIS_ID":"Emb_119","X":395735.66999999998,"Y":138282.06,"ADDRID":218651}},{"type":"Feature","id":61,"geometry":{"type":"Point","coordinates":[-77.066715570269849,38.92510344118493]},"properties":{"OBJECTID":61,"EMB_TITLE":"Royal Norwegian Embassy","COUNTRY":"Norway","ADDRESS":"2720 34TH STREET NW","TELEPHONE":"(202) 333-6000","WEBURL":"http://www.norway.org/Embassy/washington/","GIS_ID":"Emb_120","X":394215.07000000001,"Y":139693.23999999999,"ADDRID":294548}},{"type":"Feature","id":62,"geometry":{"type":"Point","coordinates":[-77.056079440231599,38.917713733451208]},"properties":{"OBJECTID":62,"EMB_TITLE":"Embassy of the Sultanate of Oman","COUNTRY":"Oman","ADDRESS":"2535 BELMONT ROAD NW","TELEPHONE":"(202) 387-1980","WEBURL":"http://www.omani.info/","GIS_ID":"Emb_121","X":395136.85999999999,"Y":138872.29999999999,"ADDRID":218873}},{"type":"Feature","id":63,"geometry":{"type":"Point","coordinates":[-77.057588871568811,38.922587856525148]},"properties":{"OBJECTID":63,"EMB_TITLE":"Embassy of Panama","COUNTRY":"Panama","ADDRESS":"2862 MCGILL TERRACE NW","TELEPHONE":"(202) 483-1407","WEBURL":"http://www.embassyofpanama.org","GIS_ID":"Emb_122","X":395006.29999999999,"Y":139413.45000000001,"ADDRID":219070}},{"type":"Feature","id":64,"geometry":{"type":"Point","coordinates":[-77.052970483845542,38.913431810328007]},"properties":{"OBJECTID":64,"EMB_TITLE":"Embassy of the Republic of Paraguay","COUNTRY":"Paraguay","ADDRESS":"2400 MASSACHUSETTS AVENUE NW","TELEPHONE":"(202) 483-6960","WEBURL":"http://www.embaparusa.gov.py/v2/","GIS_ID":"Emb_123","X":395406.20000000001,"Y":138396.81,"ADDRID":277154}},{"type":"Feature","id":65,"geometry":{"type":"Point","coordinates":[-77.038798160067088,38.907703925353388]},"properties":{"OBJECTID":65,"EMB_TITLE":"Embassy of Peru","COUNTRY":"Peru","ADDRESS":"1700 MASSACHUSETTS AVENUE NW","TELEPHONE":"(202) 833-9860","WEBURL":"http://www.embassyofperu.org/","GIS_ID":"Emb_124","X":396635.06,"Y":137760.35000000001,"ADDRID":241742}},{"type":"Feature","id":66,"geometry":{"type":"Point","coordinates":[-77.038103507242198,38.907480656842765]},"properties":{"OBJECTID":66,"EMB_TITLE":"Embassy of the Philippines","COUNTRY":"Philippines","ADDRESS":"1600 MASSACHUSETTS AVENUE NW","TELEPHONE":"(202) 467-9300","WEBURL":"http://www.philippineembassy-usa.org/","GIS_ID":"Emb_125","X":396695.29999999999,"Y":137735.54000000001,"ADDRID":242016}},{"type":"Feature","id":67,"geometry":{"type":"Point","coordinates":[-77.036952509910748,38.92458316997422]},"properties":{"OBJECTID":67,"EMB_TITLE":"Embassy of the Republic of Poland","COUNTRY":"Poland","ADDRESS":"2640 16TH STREET NW","TELEPHONE":"(202) 499-1700","WEBURL":"http://www.polandembassy.org/","GIS_ID":"Emb_126","X":396795.90000000002,"Y":139634.01999999999,"ADDRID":235850}},{"type":"Feature","id":68,"geometry":{"type":"Point","coordinates":[-77.054424069370441,38.905511904907506]},"properties":{"OBJECTID":68,"EMB_TITLE":"Embassy of the State of Qatar","COUNTRY":"Qatar","ADDRESS":"2555 M STREET NW","TELEPHONE":"(202) 274-1600","WEBURL":"http://www.qatarembassy.net/","GIS_ID":"Emb_127","X":395279.60999999999,"Y":137517.70999999999,"ADDRID":273877}},{"type":"Feature","id":69,"geometry":{"type":"Point","coordinates":[-77.050420936485835,38.911542087517759]},"properties":{"OBJECTID":69,"EMB_TITLE":"Embassy of Romania","COUNTRY":"Romania","ADDRESS":"1607 23RD STREET NW","TELEPHONE":"(202) 332-4846","WEBURL":"http://washington.mae.ro/","GIS_ID":"Emb_128","X":395627.20000000001,"Y":138186.91,"ADDRID":234879}},{"type":"Feature","id":70,"geometry":{"type":"Point","coordinates":[-77.074402242638527,38.924072121584196]},"properties":{"OBJECTID":70,"EMB_TITLE":"Embassy of the Russian Federation","COUNTRY":"Russian Federation","ADDRESS":"2650 WISCONSIN AVENUE NW","TELEPHONE":"(202) 298-5700","WEBURL":"http://www.russianembassy.org/","GIS_ID":"Emb_129","X":393548.44,"Y":139579.26999999999,"ADDRID":271823}},{"type":"Feature","id":71,"geometry":{"type":"Point","coordinates":[-77.040521817922283,38.913194286334836]},"properties":{"OBJECTID":71,"EMB_TITLE":"Embassy of Rwanda","COUNTRY":"Rwanda","ADDRESS":"1714 NEW HAMPSHIRE AVENUE NW","TELEPHONE":"(202) 232-2882","WEBURL":"http://www.rwandaembassy.org/","GIS_ID":"Emb_130","X":396485.83000000002,"Y":138369.89000000001,"ADDRID":241607}},{"type":"Feature","id":72,"geometry":{"type":"Point","coordinates":[-77.046591298353334,38.914313126701678]},"properties":{"OBJECTID":72,"EMB_TITLE":"Embassy of Senegal","COUNTRY":"Senegal","ADDRESS":"2031 FLORIDA AVENUE NW","TELEPHONE":"(202) 234-0540","WEBURL":"http://www.ambasenegal-us.org/","GIS_ID":"Emb_131","X":395959.5,"Y":138494.34,"ADDRID":243155}},{"type":"Feature","id":73,"geometry":{"type":"Point","coordinates":[-77.043178640253984,38.912819848923554]},"properties":{"OBJECTID":73,"EMB_TITLE":"Embassy of the Republic of Sierra Leone","COUNTRY":"Sierra Leone","ADDRESS":"1701 19TH STREET NW","TELEPHONE":"(202) 939-9261","WEBURL":"http://embassyofsierraleone.net/","GIS_ID":"Emb_132","X":396255.39000000001,"Y":138328.42999999999,"ADDRID":241210}},{"type":"Feature","id":74,"geometry":{"type":"Point","coordinates":[-77.064401817226113,38.94179092195516]},"properties":{"OBJECTID":74,"EMB_TITLE":"Embassy of South Africa","COUNTRY":"South Africa","ADDRESS":"3051 MASSACHUSETTS AVENUE NW","TELEPHONE":"(202) 232-4400","WEBURL":"http://www.saembassy.org/","GIS_ID":"Emb_133","X":394417.01000000001,"Y":141545.55000000002,"ADDRID":301239}},{"type":"Feature","id":75,"geometry":{"type":"Point","coordinates":[-77.051146627793599,38.903166529158163]},"properties":{"OBJECTID":75,"EMB_TITLE":"Embassy of Spain","COUNTRY":"Spain","ADDRESS":"2375 PENNSYLVANIA AVENUE NW","TELEPHONE":"(202) 452-0100","WEBURL":"http://www.spainemb.org/ingles/indexing.htm","GIS_ID":"Emb_134","X":395563.73999999999,"Y":137257.19,"ADDRID":242745}},{"type":"Feature","id":76,"geometry":{"type":"Point","coordinates":[-77.061768155901518,38.91862494029737]},"properties":{"OBJECTID":76,"EMB_TITLE":"Embassy of Sri Lanka","COUNTRY":"Sri Lanka","ADDRESS":"3025 WHITEHAVEN STREET NW","TELEPHONE":"(202) 483-4025","WEBURL":"http://www.slembassyusa.org/","GIS_ID":"Emb_135","X":395752.69,"Y":138781.32000000001,"ADDRID":235004}},{"type":"Feature","id":77,"geometry":{"type":"Point","coordinates":[-77.085975096198723,38.933203568377238]},"properties":{"OBJECTID":77,"EMB_TITLE":"Embassy of Saint Kitts and Nevis","COUNTRY":"St. Kitts and Nevis","ADDRESS":"3216 NEW MEXICO AVENUE NW","TELEPHONE":"(202) 686-2636","WEBURL":"http://www.embassy.gov.kn","GIS_ID":"Emb_15","X":392545.85999999999,"Y":140593.82000000001,"ADDRID":265490}},{"type":"Feature","id":78,"geometry":{"type":"Point","coordinates":[-77.049496688593067,38.911378711041898]},"properties":{"OBJECTID":78,"EMB_TITLE":"Embassy of the Republic of The Sudan","COUNTRY":"Sudan","ADDRESS":"2210 MASSACHUSETTS AVENUE NW","TELEPHONE":"(202) 338-8565","WEBURL":"http://www.sudanembassy.org/","GIS_ID":"Emb_137","X":395707.35000000003,"Y":138168.73000000001,"ADDRID":234883}},{"type":"Feature","id":79,"geometry":{"type":"Point","coordinates":[-77.049425305330132,38.91136090474123]},"properties":{"OBJECTID":79,"EMB_TITLE":"Embassy of Togo","COUNTRY":"Togo","ADDRESS":"2208 MASSACHUSETTS AVENUE NW","TELEPHONE":"(202) 234-4212","WEBURL":"http://www.togoleseembassy.com/","GIS_ID":"Emb_138","X":395713.54000000004,"Y":138166.75,"ADDRID":234884}},{"type":"Feature","id":80,"geometry":{"type":"Point","coordinates":[-77.04189474359552,38.908113086590014]},"properties":{"OBJECTID":80,"EMB_TITLE":"Embassy of Albania","COUNTRY":"Albania","ADDRESS":"1312 18TH STREET NW","TELEPHONE":"(202) 223-4942","WEBURL":"http://www.embassyofalbania.org/","GIS_ID":"Emb_1","X":396365.31,"Y":137808.58000000002,"ADDRID":241265}},{"type":"Feature","id":81,"geometry":{"type":"Point","coordinates":[-77.036909458673321,38.918497789364423]},"properties":{"OBJECTID":81,"EMB_TITLE":"Embassy of Angola","COUNTRY":"Angola","ADDRESS":"2108 16TH STREET NW","TELEPHONE":"(202) 785-1156","WEBURL":"http://www.angola.org/","GIS_ID":"Emb_3","X":396799.35999999999,"Y":138958.48999999999,"ADDRID":218620}},{"type":"Feature","id":82,"geometry":{"type":"Point","coordinates":[-77.049877981766954,38.912855196292249]},"properties":{"OBJECTID":82,"EMB_TITLE":"Embassy of Armenia","COUNTRY":"Armenia","ADDRESS":"2225 R STREET NW","TELEPHONE":"(202) 319-1976","WEBURL":"http://usa.mfa.am/en/","GIS_ID":"Emb_4","X":395674.37,"Y":138332.64999999999,"ADDRID":234950}},{"type":"Feature","id":83,"geometry":{"type":"Point","coordinates":[-77.067993256053228,38.941821942837535]},"properties":{"OBJECTID":83,"EMB_TITLE":"Embassy of Bangladesh","COUNTRY":"Bangladesh","ADDRESS":"3510 INTERNATIONAL DRIVE NW","TELEPHONE":"(202) 244-0183","WEBURL":"http://www.bdembassyusa.org/","GIS_ID":"Emb_5","X":394105.66000000003,"Y":141549.22,"ADDRID":294574}},{"type":"Feature","id":84,"geometry":{"type":"Point","coordinates":[-77.056267697557772,38.916633813965632]},"properties":{"OBJECTID":84,"EMB_TITLE":"Embassy of Belize","COUNTRY":"Belize","ADDRESS":"2535 MASSACHUSETTS AVENUE NW","TELEPHONE":"(202) 332-9636","WEBURL":"http://www.embassyofbelize.org/","GIS_ID":"Emb_6","X":395120.46000000002,"Y":138752.42999999999,"ADDRID":218932}},{"type":"Feature","id":85,"geometry":{"type":"Point","coordinates":[-77.04721200815986,38.896219585491437]},"properties":{"OBJECTID":85,"EMB_TITLE":"Embassy of Bosnia and Herzegovina","COUNTRY":"Bosnia and Herzegovina","ADDRESS":"2109 E STREET NW","TELEPHONE":"(202) 337-1500","WEBURL":"http://www.bhembassy.org/","GIS_ID":"Emb_7","X":395904.63,"Y":136485.84,"ADDRID":242540}},{"type":"Feature","id":86,"geometry":{"type":"Point","coordinates":[-77.041982778299982,38.910762959588141]},"properties":{"OBJECTID":86,"EMB_TITLE":"Embassy of the Republic of Botswana","COUNTRY":"Botswana","ADDRESS":"1531-1533 NEW HAMPSHIRE NW","TELEPHONE":"(202) 244-4990","WEBURL":"http://www.botswanaembassy.org/","GIS_ID":"Emb_8","X":396359,"Y":138100.04999999999,"ADDRID":225750}},{"type":"Feature","id":87,"geometry":{"type":"Point","coordinates":[-77.070778226467453,38.919948468947936]},"properties":{"OBJECTID":87,"EMB_TITLE":"Embassy of the Republic of Burundi","COUNTRY":"Burundi","ADDRESS":"2233 WISCONSIN AVENUE NW","TELEPHONE":"(202) 342-2574","WEBURL":"http://www.burundiembassydc-usa.org/","GIS_ID":"Emb_9","X":393862.34000000003,"Y":139121.26000000001,"ADDRID":284312}},{"type":"Feature","id":88,"geometry":{"type":"Point","coordinates":[-77.067836034712514,38.925093337411624]},"properties":{"OBJECTID":88,"EMB_TITLE":"Embassy of the Republic of Cape Verde","COUNTRY":"Cape Verde","ADDRESS":"3415 MASSACHUSETTS AVENUE NW","TELEPHONE":"(202) 965-6820","WEBURL":"http://embassy.org/embassies/cv.html","GIS_ID":"Emb_10","X":394117.91000000003,"Y":139692.19,"ADDRID":284672}},{"type":"Feature","id":89,"geometry":{"type":"Point","coordinates":[-77.03690008623461,38.913512053956303]},"properties":{"OBJECTID":89,"EMB_TITLE":"Embassy of the Republic of the Congo","COUNTRY":"Congo (Republic)","ADDRESS":"1720 16TH STREET NW","TELEPHONE":"(202) 726-5500","WEBURL":"http://www.ambacongo-us.org/","GIS_ID":"Emb_12","X":396799.95000000001,"Y":138405.03,"ADDRID":241979}},{"type":"Feature","id":90,"geometry":{"type":"Point","coordinates":[-77.063305883080275,38.917371598709877]},"properties":{"OBJECTID":90,"EMB_TITLE":"Royal Danish Embassy","COUNTRY":"Denmark","ADDRESS":"3200 WHITEHAVEN STREET NW","TELEPHONE":"(202) 234-4300","WEBURL":"http://usa.um.dk/","GIS_ID":"Emb_13","X":394510.14000000001,"Y":138834.73000000001,"ADDRID":223980}},{"type":"Feature","id":91,"geometry":{"type":"Point","coordinates":[-77.035030125183638,38.905391321135049]},"properties":{"OBJECTID":91,"EMB_TITLE":"Embassy of the Republic of Djibouti","COUNTRY":"Djibouti","ADDRESS":"1156 15TH STREET NW","TELEPHONE":"(202) 331-0270","WEBURL":"http://www.embassy.org/embassies/dj.html","GIS_ID":"Emb_14","X":396961.78000000003,"Y":137503.5,"ADDRID":242325}},{"type":"Feature","id":92,"geometry":{"type":"Point","coordinates":[-77.085975096198723,38.933203568377238]},"properties":{"OBJECTID":92,"EMB_TITLE":"Embassy of the Commonwealth of Dominica","COUNTRY":"Dominica","ADDRESS":"3216 NEW MEXICO AVENUE NW","TELEPHONE":"(202) 364-6781","WEBURL":"http://www.embassy.org/embassies/dm.html","GIS_ID":"Emb_15","X":392545.85999999999,"Y":140593.82000000001,"ADDRID":265490}},{"type":"Feature","id":93,"geometry":{"type":"Point","coordinates":[-77.045808095287057,38.917990353279905]},"properties":{"OBJECTID":93,"EMB_TITLE":"Embassy of the Gabonese Republic","COUNTRY":"Gabon","ADDRESS":"2034 20TH STREET NW","TELEPHONE":"(202) 797-1000","WEBURL":"http://gabonembassyusa.org/","GIS_ID":"Emb_18","X":396027.63,"Y":138902.51000000001,"ADDRID":235124}},{"type":"Feature","id":94,"geometry":{"type":"Point","coordinates":[-77.070778226467453,38.919948468947936]},"properties":{"OBJECTID":94,"EMB_TITLE":"Embassy of The Gambia","COUNTRY":"Gambia (The)","ADDRESS":"2233 WISCONSIN AVENUE NW","TELEPHONE":"(202) 785-1399","WEBURL":"http://www.gambiaembassy.us","GIS_ID":"Emb_19","X":393862.34000000003,"Y":139121.26000000001,"ADDRID":284312}},{"type":"Feature","id":95,"geometry":{"type":"Point","coordinates":[-77.049607302197529,38.91211355739005]},"properties":{"OBJECTID":95,"EMB_TITLE":"Embassy of Greece","COUNTRY":"Greece","ADDRESS":"2217 MASSACHUSETTS AVENUE NW","TELEPHONE":"(202) 939-1300","WEBURL":"http://www.mfa.gr/usa/en/the-embassy","GIS_ID":"Emb_20","X":395697.79999999999,"Y":138250.31,"ADDRID":300774}},{"type":"Feature","id":96,"geometry":{"type":"Point","coordinates":[-77.04014985425512,38.912793093199859]},"properties":{"OBJECTID":96,"EMB_TITLE":"Embassy of Grenada","COUNTRY":"Grenada","ADDRESS":"1701 NEW HAMPSHIRE AVENUE NW","TELEPHONE":"(202) 265-2561","WEBURL":"http://www.grenadaembassyusa.org","GIS_ID":"Emb_21","X":396518.07000000001,"Y":138325.34,"ADDRID":241643}},{"type":"Feature","id":97,"geometry":{"type":"Point","coordinates":[-77.055759308216196,38.916938269130448]},"properties":{"OBJECTID":97,"EMB_TITLE":"Embassy of Guyana","COUNTRY":"Guyana","ADDRESS":"2490 TRACY PLACE NW","TELEPHONE":"(202) 265-6900","WEBURL":"http://www.embassy.org/embassies/gy.html","GIS_ID":"Emb_22","X":395164.57000000001,"Y":138786.20000000001,"ADDRID":218951}},{"type":"Feature","id":98,"geometry":{"type":"Point","coordinates":[-77.051358435064344,38.913128228307983]},"properties":{"OBJECTID":98,"EMB_TITLE":"Embassy of Haiti","COUNTRY":"Haiti","ADDRESS":"2311 MASSACHUSETTS AVENUE NW","TELEPHONE":"(202) 332-4090","WEBURL":"http://www.haiti.org/","GIS_ID":"Emb_23","X":395545.98999999999,"Y":138363.03,"ADDRID":218127}},{"type":"Feature","id":99,"geometry":{"type":"Point","coordinates":[-77.065691224230477,38.924672522881373]},"properties":{"OBJECTID":99,"EMB_TITLE":"Apostolic Nunciature","COUNTRY":"Holy See (The)","ADDRESS":"3339 MASSACHUSETTS AVENUE NW","TELEPHONE":"(202) 333-7121","WEBURL":"http://www.embassy.org/embassies/va.html","GIS_ID":"Emb_24","X":394303.85999999999,"Y":139645.34,"ADDRID":220340}},{"type":"Feature","id":100,"geometry":{"type":"Point","coordinates":[-77.063786631605254,38.941244900671933]},"properties":{"OBJECTID":100,"EMB_TITLE":"Embassy of Honduras","COUNTRY":"Honduras","ADDRESS":"3007 TILDEN STREET NW","TELEPHONE":"(202) 966-7702","WEBURL":"http://www.hondurasemb.org/","GIS_ID":"Emb_25","X":394470.29999999999,"Y":141484.89999999999,"ADDRID":294550}},{"type":"Feature","id":101,"geometry":{"type":"Point","coordinates":[-77.042791496648377,38.910777349792205]},"properties":{"OBJECTID":101,"EMB_TITLE":"Embassy of Jamaica","COUNTRY":"Jamaica","ADDRESS":"1520 NEW HAMPSHIRE AVENUE NW","TELEPHONE":"(202) 452-0660","WEBURL":"http://www.embassyofjamaica.org","GIS_ID":"Emb_26","X":396288.85999999999,"Y":138101.67999999999,"ADDRID":225682}},{"type":"Feature","id":102,"geometry":{"type":"Point","coordinates":[-77.05030123915563,38.912828260069425]},"properties":{"OBJECTID":102,"EMB_TITLE":"Embassy of the Republic of Kenya","COUNTRY":"Kenya","ADDRESS":"2249 R STREET NW","TELEPHONE":"(202) 387-6101","WEBURL":"http://www.kenyaembassy.com/","GIS_ID":"Emb_27","X":395637.66000000003,"Y":138329.67999999999,"ADDRID":279582}},{"type":"Feature","id":103,"geometry":{"type":"Point","coordinates":[-77.049526921488606,38.913904096546815]},"properties":{"OBJECTID":103,"EMB_TITLE":"Embassy of the Lao People's Democratic Republic","COUNTRY":"Laos","ADDRESS":"2222 S STREET NW","TELEPHONE":"(202) 332-6416","WEBURL":"http://www.laoembassy.com/welcomelaoembassy.html","GIS_ID":"Emb_29","X":395704.88,"Y":138449.07000000001,"ADDRID":234955}},{"type":"Feature","id":104,"geometry":{"type":"Point","coordinates":[-77.051195554975749,38.911783111756627]},"properties":{"OBJECTID":104,"EMB_TITLE":"Embassy of Latvia","COUNTRY":"Latvia","ADDRESS":"2306 MASSACHUSETTS AVENUE NW","TELEPHONE":"(202) 328-2840","WEBURL":"http://www.latvia-usa.org/","GIS_ID":"Emb_30","X":395560.03000000003,"Y":138213.70000000001,"ADDRID":234877}},{"type":"Feature","id":105,"geometry":{"type":"Point","coordinates":[-77.055380271681713,38.916028427390749]},"properties":{"OBJECTID":105,"EMB_TITLE":"Embassy of the Kingdom of Lesotho","COUNTRY":"Lesotho","ADDRESS":"2511 MASSACHUSETTS AVENUE NW","TELEPHONE":"(202) 797-5533","WEBURL":"http://www.lesothoemb-usa.gov.ls","GIS_ID":"Emb_31","X":395197.38,"Y":138685.17999999999,"ADDRID":218952}},{"type":"Feature","id":106,"geometry":{"type":"Point","coordinates":[-77.0369586344097,38.923939703662732]},"properties":{"OBJECTID":106,"EMB_TITLE":"Embassy of the Republic of Lithuania","COUNTRY":"Lithuania","ADDRESS":"2622 16TH STREET NW","TELEPHONE":"(202) 234-5860","WEBURL":"http://www.ltembassyus.org/","GIS_ID":"Emb_32","X":396795.34000000003,"Y":139562.59,"ADDRID":235849}},{"type":"Feature","id":107,"geometry":{"type":"Point","coordinates":[-77.052943655023896,38.913326244743331]},"properties":{"OBJECTID":107,"EMB_TITLE":"Embassy of the Republic of Madagascar","COUNTRY":"Madagascar","ADDRESS":"2374 MASSACHUSETTS AVENUE NW","TELEPHONE":"(202) 265-5525","WEBURL":"http://www.madagascar-embassy.org/embassy/index.html","GIS_ID":"Emb_33","X":395408.52000000002,"Y":138385.09,"ADDRID":218988}},{"type":"Feature","id":108,"geometry":{"type":"Point","coordinates":[-77.053214813649362,38.91358808408345]},"properties":{"OBJECTID":108,"EMB_TITLE":"Embassy of the Republic of Malawi","COUNTRY":"Malawi","ADDRESS":"2408 MASSACHUSETTS AVENUE NW","TELEPHONE":"(202) 721-0270","WEBURL":"http://www.malawiembassy-dc.org/","GIS_ID":"Emb_34","X":395385.02000000002,"Y":138414.17000000001,"ADDRID":275738}},{"type":"Feature","id":109,"geometry":{"type":"Point","coordinates":[-77.053868104193725,38.914933450336619]},"properties":{"OBJECTID":109,"EMB_TITLE":"Embassy of the Republic of the Marshall Islands","COUNTRY":"Marshall Islands","ADDRESS":"2433 MASSACHUSETTS AVENUE NW","TELEPHONE":"(202) 234-5414","WEBURL":"http://www.rmiembassyus.org","GIS_ID":"Emb_35","X":395328.45000000001,"Y":138563.54999999999,"ADDRID":218969}},{"type":"Feature","id":110,"geometry":{"type":"Point","coordinates":[-77.038975686919329,38.907415358690557]},"properties":{"OBJECTID":110,"EMB_TITLE":"Embassy of the Republic of Mauritius","COUNTRY":"Mauritius","ADDRESS":"1709 N STREET NW","TELEPHONE":"(202) 244-1491","WEBURL":"http://www.gov.mu/portal/sites/mfamission/washington/index.htm","GIS_ID":"Emb_36","X":396618.85000000003,"Y":137728.89999999999,"ADDRID":241739}},{"type":"Feature","id":111,"geometry":{"type":"Point","coordinates":[-77.039516872666752,38.907436677006203]},"properties":{"OBJECTID":111,"EMB_TITLE":"Embassy of the Federated States of Micronesia","COUNTRY":"Micronesia","ADDRESS":"1725 N STREET NW","TELEPHONE":"(202) 223-4383","WEBURL":"http://www.fsmembassydc.org/","GIS_ID":"Emb_37","X":396572.71000000002,"Y":137730.70999999999,"ADDRID":241752}},{"type":"Feature","id":112,"geometry":{"type":"Point","coordinates":[-77.046683620948812,38.914243710445909]},"properties":{"OBJECTID":112,"EMB_TITLE":"Embassy of the Republic of Moldova","COUNTRY":"Moldova","ADDRESS":"2101 S STREET NW","TELEPHONE":"(202) 667-1130","WEBURL":"http://www.sua.mfa.md/about-embassy-en/","GIS_ID":"Emb_38","X":395951.48999999999,"Y":138486.64000000001,"ADDRID":235104}},{"type":"Feature","id":113,"geometry":{"type":"Point","coordinates":[-77.057986391084768,38.905411644789773]},"properties":{"OBJECTID":113,"EMB_TITLE":"Embassy of Mongolia","COUNTRY":"Mongolia","ADDRESS":"2833 M STREET NW","TELEPHONE":"(202) 333-7117","WEBURL":"http://www.mongolianembassy.us","GIS_ID":"Emb_39","X":394980.35000000003,"Y":137504.39999999999,"ADDRID":272090}},{"type":"Feature","id":114,"geometry":{"type":"Point","coordinates":[-77.046374801139081,38.911355759435665]},"properties":{"OBJECTID":114,"EMB_TITLE":"Embassy of the Kingdom of Morocco","COUNTRY":"Morocco","ADDRESS":"1601 21ST STREET NW","TELEPHONE":"(202) 462-7979","WEBURL":"http://www.embassyofmorocco.us/","GIS_ID":"Emb_40","X":395978.10999999999,"Y":138166.04000000001,"ADDRID":289225}},{"type":"Feature","id":115,"geometry":{"type":"Point","coordinates":[-77.042158169850751,38.910603809080328]},"properties":{"OBJECTID":115,"EMB_TITLE":"Embassy of the Republic of Mozambique","COUNTRY":"Mozambique","ADDRESS":"1525 NEW HAMPSHIRE AVENUE NW","TELEPHONE":"(202) 293-7146","WEBURL":"http://www.embamoc-usa.org/","GIS_ID":"Emb_41","X":396343.78000000003,"Y":138082.39000000001,"ADDRID":225716}},{"type":"Feature","id":116,"geometry":{"type":"Point","coordinates":[-77.039825441803728,38.899343810638243]},"properties":{"OBJECTID":116,"EMB_TITLE":"Embassy of the Republic of Palau","COUNTRY":"Palau","ADDRESS":"1701 PENNSYLVANIA AVENUE NW","TELEPHONE":"(202) 452-6814","WEBURL":"http://www.palauembassy.com/","GIS_ID":"Emb_42","X":396545.44,"Y":136832.38,"ADDRID":218414}},{"type":"Feature","id":117,"geometry":{"type":"Point","coordinates":[-77.045758872067111,38.910113841175274]},"properties":{"OBJECTID":117,"EMB_TITLE":"Embassy of Portugal","COUNTRY":"Portugal","ADDRESS":"2012 MASSACHUSETTS AVENUE NW","TELEPHONE":"(202) 350-5400","WEBURL":"http://www.embassyportugal-us.org/Embassy_of_Portugal/Home.html","GIS_ID":"Emb_43","X":396031.46000000002,"Y":138028.14999999999,"ADDRID":225933}},{"type":"Feature","id":118,"geometry":{"type":"Point","coordinates":[-77.085975096198723,38.933203568377238]},"properties":{"OBJECTID":118,"EMB_TITLE":"Embassy of Saint Lucia","COUNTRY":"Saint Lucia","ADDRESS":"3216 NEW MEXICO AVENUE NW","TELEPHONE":"(202) 364-6792","WEBURL":"http://www.stlucia.org/services/government.asp","GIS_ID":"Emb_15","X":392545.85999999999,"Y":140593.82000000001,"ADDRID":265490}},{"type":"Feature","id":119,"geometry":{"type":"Point","coordinates":[-77.085975096198723,38.933203568377238]},"properties":{"OBJECTID":119,"EMB_TITLE":"Embassy of Saint Vincent and the Grenadines","COUNTRY":"Saint Vincent/Grenadines","ADDRESS":"3216 NEW MEXICO AVENUE NW","TELEPHONE":"(202) 364-6730","WEBURL":"http://www.embsvg.com/","GIS_ID":"Emb_15","X":392545.85999999999,"Y":140593.82000000001,"ADDRID":265490}},{"type":"Feature","id":120,"geometry":{"type":"Point","coordinates":[-77.054029506790158,38.897852820766893]},"properties":{"OBJECTID":120,"EMB_TITLE":"Royal Embassy of Saudi Arabia","COUNTRY":"Saudi Arabia","ADDRESS":"601 NEW HAMPSHIRE AVENUE NW","TELEPHONE":"(202) 342-3800","WEBURL":"http://www.saudiembassy.net/","GIS_ID":"Emb_46","X":395313.33000000002,"Y":136667.47,"ADDRID":273876}},{"type":"Feature","id":121,"geometry":{"type":"Point","coordinates":[-77.053460909869955,38.915330274436847]},"properties":{"OBJECTID":121,"EMB_TITLE":"Embassy of the Republic of Slovenia","COUNTRY":"Slovenia","ADDRESS":"2410 CALIFORNIA STREET NW","TELEPHONE":"(202) 386-6601","WEBURL":"http://washington.embassy.si","GIS_ID":"Emb_47","X":395363.79000000004,"Y":138607.58000000002,"ADDRID":218958}},{"type":"Feature","id":122,"geometry":{"type":"Point","coordinates":[-77.063111163847068,38.944782101217967]},"properties":{"OBJECTID":122,"EMB_TITLE":"Embassy of the Republic of Suriname","COUNTRY":"Suriname","ADDRESS":"4301 CONNECTICUT AVENUE NW","TELEPHONE":"(202) 244-7488","WEBURL":"http://surinameembassy.org","GIS_ID":"Emb_36","X":394529.13,"Y":141877.51999999999,"ADDRID":220629}},{"type":"Feature","id":123,"geometry":{"type":"Point","coordinates":[-77.049118211558309,38.90610611332032]},"properties":{"OBJECTID":123,"EMB_TITLE":"Embassy of the United Republic of Tanzania","COUNTRY":"Tanzania","ADDRESS":"1232 22ND STREET NW","TELEPHONE":"(202) 939-6125","WEBURL":"http://www.tanzaniaembassy-us.org/","GIS_ID":"Emb_49","X":395739.85999999999,"Y":137583.41,"ADDRID":276968}},{"type":"Feature","id":124,"geometry":{"type":"Point","coordinates":[-77.049281176764993,38.912023799467327]},"properties":{"OBJECTID":124,"EMB_TITLE":"Embassy of Turkmenistan","COUNTRY":"Turkmenistan","ADDRESS":"2207 MASSACHUSETTS AVENUE NW","TELEPHONE":"(202) 588-1500","WEBURL":"http://www.turkmenistanembassy.org/","GIS_ID":"Emb_51","X":395726.08000000002,"Y":138240.33000000002,"ADDRID":234889}},{"type":"Feature","id":125,"geometry":{"type":"Point","coordinates":[-77.062474989439679,38.919644217511674]},"properties":{"OBJECTID":125,"EMB_TITLE":"Embassy of the United Kingdom of Great Britain and Northern Ireland","COUNTRY":"United Kingdom","ADDRESS":"3100 MASSACHUSETTS AVENUE NW","TELEPHONE":"(202) 588-6500","WEBURL":"https://www.gov.uk/government/world/organisations/british-embassy-washington","GIS_ID":"Emb_52","X":394582.37,"Y":139086.95999999999,"ADDRID":284577}},{"type":"Feature","id":126,"geometry":{"type":"Point","coordinates":[-77.044152690410741,38.901601657358867]},"properties":{"OBJECTID":126,"EMB_TITLE":"Embassy of Uruguay","COUNTRY":"Uruguay","ADDRESS":"1913 I STREET NW","TELEPHONE":"(202) 331-1313","WEBURL":"http://www.mrree.gub.uy/frontend/page?1,embajada-eeuu,pagina-principal-embajada-eeuu,O,E,0,,","GIS_ID":"Emb_53","X":396170.31,"Y":137083.16,"ADDRID":242550}},{"type":"Feature","id":127,"geometry":{"type":"Point","coordinates":[-77.042094869771191,38.911579075137247]},"properties":{"OBJECTID":127,"EMB_TITLE":"Embassy of Zimbabwe","COUNTRY":"Zimbabwe","ADDRESS":"1608 NEW HAMPSHIRE AVENUE NW","TELEPHONE":"(202) 332-7100","WEBURL":"http://www.zimbabwe-embassy.us/","GIS_ID":"Emb_54","X":396349.32000000001,"Y":138190.64999999999,"ADDRID":241239}},{"type":"Feature","id":128,"geometry":{"type":"Point","coordinates":[-77.036892966101831,38.917600474676128]},"properties":{"OBJECTID":128,"EMB_TITLE":"Embassy of Equatorial Guinea","COUNTRY":"Equatorial Guinea","ADDRESS":"2020 16TH STREET NW","TELEPHONE":"(202) 518-5700","WEBURL":"http://www.embassy.org/embassies/gq.html","GIS_ID":"Emb_55","X":396800.75,"Y":138858.88,"ADDRID":243346}},{"type":"Feature","id":129,"geometry":{"type":"Point","coordinates":[-77.06638822741543,38.941268314908839]},"properties":{"OBJECTID":129,"EMB_TITLE":"Embassy of the Hashemite Kingdom of Jordan","COUNTRY":"Jordan","ADDRESS":"3504 INTERNATIONAL DRIVE NW","TELEPHONE":"(202) 966-2664","WEBURL":"http://www.jordanembassyus.org","GIS_ID":"Emb_57","X":394244.76000000001,"Y":141487.66,"ADDRID":294572}},{"type":"Feature","id":130,"geometry":{"type":"Point","coordinates":[-77.040626562503633,38.913127572482416]},"properties":{"OBJECTID":130,"EMB_TITLE":"Embassy of the Kingdom of Swaziland","COUNTRY":"Swaziland","ADDRESS":"1712 NEW HAMPSHIRE AVENUE NW","TELEPHONE":"(202) 234-5002","WEBURL":"http://www.gov.sz/index.php?option=com_content&view=article&id=453&Itemid=270","GIS_ID":"Emb_25","X":396477.63,"Y":138362.12,"ADDRID":241638}},{"type":"Feature","id":131,"geometry":{"type":"Point","coordinates":[-77.0522129729613,38.91725853238156]},"properties":{"OBJECTID":131,"EMB_TITLE":"Embassy of Afghanistan","COUNTRY":"Afghanistan","ADDRESS":"2341 WYOMING AVENUE NW","TELEPHONE":"(202) 483-6410","WEBURL":"http://www.embassyofafghanistan.org/","GIS_ID":"Emb_62","X":395472.14000000001,"Y":138821.57000000001,"ADDRID":219045}},{"type":"Feature","id":132,"geometry":{"type":"Point","coordinates":[-77.068112959129877,38.945050444328196]},"properties":{"OBJECTID":132,"EMB_TITLE":"Embassy of the Arab Republic of Egypt","COUNTRY":"Egypt","ADDRESS":"3521 INTERNATIONAL COURT NW","TELEPHONE":"(202) 895-5400","WEBURL":"http://www.egyptembassy.net/","GIS_ID":"Emb_157","X":394095.54999999999,"Y":141907.62,"ADDRID":294580}},{"type":"Feature","id":133,"geometry":{"type":"Point","coordinates":[-77.069317835690129,38.945401509667882]},"properties":{"OBJECTID":133,"EMB_TITLE":"Embassy of Austria","COUNTRY":"Austria","ADDRESS":"3524 INTERNATIONAL COURT NW","TELEPHONE":"(202) 895-6700","WEBURL":"http://www.austria.org/","GIS_ID":"Emb_158","X":393991.13,"Y":141946.67000000001,"ADDRID":294582}},{"type":"Feature","id":134,"geometry":{"type":"Point","coordinates":[-77.065452344055032,38.942711430658569]},"properties":{"OBJECTID":134,"EMB_TITLE":"Embassy of the Republic of Singapore","COUNTRY":"Singapore","ADDRESS":"3501 INTERNATIONAL PLACE NW","TELEPHONE":"(202) 537-3100","WEBURL":"http://www.mfa.gov.sg/washington/","GIS_ID":"Emb_159","X":394326.01000000001,"Y":141647.80000000002,"ADDRID":294570}},{"type":"Feature","id":135,"geometry":{"type":"Point","coordinates":[-77.069287308812775,38.944495564282875]},"properties":{"OBJECTID":135,"EMB_TITLE":"Embassy of Brunei Darussalam","COUNTRY":"Brunei Darussalam","ADDRESS":"3520 INTERNATIONAL COURT NW","TELEPHONE":"(202) 237-1838","WEBURL":"http://www.bruneiembassy.org/","GIS_ID":"Emb_160","X":393993.70000000001,"Y":141846.10000000001,"ADDRID":294579}},{"type":"Feature","id":136,"geometry":{"type":"Point","coordinates":[-77.066965291505724,38.941241141019084]},"properties":{"OBJECTID":136,"EMB_TITLE":"Embassy of Ethiopia","COUNTRY":"Ethiopia","ADDRESS":"3506 INTERNATIONAL DRIVE NW","TELEPHONE":"(202) 364-1200","WEBURL":"http://www.ethiopianembassy.org/","GIS_ID":"Emb_161","X":394194.72999999998,"Y":141484.67999999999,"ADDRID":294573}},{"type":"Feature","id":137,"geometry":{"type":"Point","coordinates":[-77.066122000674994,38.925720578264858]},"properties":{"OBJECTID":137,"EMB_TITLE":"Embassy of Republic of Azerbaijan","COUNTRY":"Azerbaijan","ADDRESS":"2741 34TH STREET NW","TELEPHONE":"(202) 337-3500","WEBURL":"http://www.azembassy.us/","GIS_ID":"Emb_162","X":394266.59000000003,"Y":139761.70999999999,"ADDRID":284495}},{"type":"Feature","id":138,"geometry":{"type":"Point","coordinates":[-77.051940721921454,38.912661158691968]},"properties":{"OBJECTID":138,"EMB_TITLE":"Embassy of Burkina Faso","COUNTRY":"Burkina Faso","ADDRESS":"2340 MASSACHUSETTS AVENUE NW","TELEPHONE":"(202) 332-5577","WEBURL":"http://burkina-usa.org/","GIS_ID":"Emb_163","X":395495.46000000002,"Y":138311.20999999999,"ADDRID":218978}},{"type":"Feature","id":139,"geometry":{"type":"Point","coordinates":[-77.047054305064805,38.915434554020656]},"properties":{"OBJECTID":139,"EMB_TITLE":"Embassy of the Republic of Guinea","COUNTRY":"Guinea","ADDRESS":"2112 LEROY PLACE NW","TELEPHONE":"(202) 986-4300","WEBURL":"http://guineaembassyusa.com/","GIS_ID":"Emb_164","X":395919.41000000003,"Y":138618.85000000001,"ADDRID":235074}},{"type":"Feature","id":140,"geometry":{"type":"Point","coordinates":[-77.041000509843229,38.909301254045168]},"properties":{"OBJECTID":140,"EMB_TITLE":"Embassy of Papua New Guinea","COUNTRY":"Papua New Guinea","ADDRESS":"1779 MASSACHUSETTS AVENUE NW","TELEPHONE":"(202) 745-3680","WEBURL":"http://www.pngembassy.org/\n","GIS_ID":"Emb_166","X":396444.12,"Y":137937.75,"ADDRID":241732}},{"type":"Feature","id":141,"geometry":{"type":"Point","coordinates":[-77.069282139917831,38.944993005006943]},"properties":{"OBJECTID":141,"EMB_TITLE":"Embassy of the United Arab Emirates","COUNTRY":"United Arab Emirates","ADDRESS":"3522 INTERNATIONAL COURT NW","TELEPHONE":"(202) 243-2400","WEBURL":"http://uae-embassy.org/","GIS_ID":"Emb_167","X":393994.19,"Y":141901.32000000001,"ADDRID":294617}},{"type":"Feature","id":142,"geometry":{"type":"Point","coordinates":[-77.069176079714026,38.943872436732484]},"properties":{"OBJECTID":142,"EMB_TITLE":"Embassy of Malaysia","COUNTRY":"Malaysia","ADDRESS":"3516 INTERNATIONAL COURT NW","TELEPHONE":"(202) 572-9700","WEBURL":"http://www.kln.gov.my/web/usa_washington/home","GIS_ID":"Emb_168","X":394003.29000000004,"Y":141776.92000000001,"ADDRID":294576}},{"type":"Feature","id":143,"geometry":{"type":"Point","coordinates":[-77.068126481569962,38.945560395568684]},"properties":{"OBJECTID":143,"EMB_TITLE":"Embassy of the Slovak Republic","COUNTRY":"Slovak Republic","ADDRESS":"3523 INTERNATIONAL COURT NW","TELEPHONE":"(202) 237-1054","WEBURL":"http://www.mzv.sk/washington","GIS_ID":"Emb_169","X":394094.41999999998,"Y":141964.23000000001,"ADDRID":294581}},{"type":"Feature","id":144,"geometry":{"type":"Point","coordinates":[-77.06816250552798,38.943423338334902]},"properties":{"OBJECTID":144,"EMB_TITLE":"Embassy of the Islamic Republic of Pakistan","COUNTRY":"Pakistan","ADDRESS":"3517 INTERNATIONAL COURT NW","TELEPHONE":"(202) 243-6500","WEBURL":"http://www.embassyofpakistanusa.org/","GIS_ID":"Emb_170","X":394091.12,"Y":141727,"ADDRID":294577}},{"type":"Feature","id":145,"geometry":{"type":"Point","coordinates":[-77.070778226467453,38.919948468947936]},"properties":{"OBJECTID":145,"EMB_TITLE":"Embassy of the Republic of Serbia","COUNTRY":"Serbia","ADDRESS":"2233 WISCONSIN AVENUE NW","TELEPHONE":"(202) 332-0333","WEBURL":"http://www.serbiaembusa.org/","GIS_ID":"Emb_171","X":395718.5,"Y":138895.14999999999,"ADDRID":234993}},{"type":"Feature","id":146,"geometry":{"type":"Point","coordinates":[-77.068139668670099,38.944190422137687]},"properties":{"OBJECTID":146,"EMB_TITLE":"Embassy of the Federal Republic of Nigeria","COUNTRY":"Nigeria","ADDRESS":"3519 INTERNATIONAL COURT NW","TELEPHONE":"(202) 986-8400","WEBURL":"http://www.nigeriaembassyusa.org/","GIS_ID":"Emb_172","X":394091.73999999999,"Y":141807.97,"ADDRID":308555}},{"type":"Feature","id":147,"geometry":{"type":"Point","coordinates":[-77.068267298243924,38.925422794209453]},"properties":{"OBJECTID":147,"EMB_TITLE":"Embassy of The Republic of Iraq","COUNTRY":"Iraq","ADDRESS":"3421 MASSACHUSETTS AVENUE NW","TELEPHONE":"(202) 742-1600","WEBURL":"http://www.iraqiembassy.us\r\n","GIS_ID":"Emb_174","X":394080.54000000004,"Y":139728.79000000001,"ADDRID":284680}},{"type":"Feature","id":148,"geometry":{"type":"Point","coordinates":[-77.06263695166281,38.94347705639948]},"properties":{"OBJECTID":148,"EMB_TITLE":"Embassy of the Democractic Republic of East Timor","COUNTRY":"East Timor","ADDRESS":"4201 CONNECTICUT AVENUE NW","TELEPHONE":"(202) 966-3202","WEBURL":"http://www.timorlesteembassy.org/","GIS_ID":"Emb_175","X":394570.14000000001,"Y":141732.62,"ADDRID":220631}},{"type":"Feature","id":149,"geometry":{"type":"Point","coordinates":[-77.048447902867778,38.902881484019353]},"properties":{"OBJECTID":149,"EMB_TITLE":"Delegation of the European Union","COUNTRY":"European Union","ADDRESS":"2175 K STREET NW","TELEPHONE":"(202) 862-9500","WEBURL":"http://www.euintheus.org/","GIS_ID":"Emb_176","X":395797.81,"Y":137225.42000000001,"ADDRID":279563}},{"type":"Feature","id":150,"geometry":{"type":"Point","coordinates":[-77.049223266170657,38.903127178118424]},"properties":{"OBJECTID":150,"EMB_TITLE":"Embassy of Tajikistan","COUNTRY":"Tajikistan","ADDRESS":"1005 NEW HAMPSHIRE AVENUE NW","TELEPHONE":"(202)-223-6090","WEBURL":"http://www.tjus.org/","GIS_ID":"Emb_178","X":395730.57000000001,"Y":137252.73000000001,"ADDRID":242373}},{"type":"Feature","id":151,"geometry":{"type":"Point","coordinates":[-77.05130812984504,38.917249384369981]},"properties":{"OBJECTID":151,"EMB_TITLE":"Embassy of the Republic of Yemen","COUNTRY":"Yemen","ADDRESS":"2319 WYOMING AVENUE NW","TELEPHONE":"(202) 965-4760","WEBURL":"http://www.yemenembassy.org/","GIS_ID":"Emb_151","X":395550.60999999999,"Y":138820.51000000001,"ADDRID":219040}},{"type":"Feature","id":152,"geometry":{"type":"Point","coordinates":[-77.054663163013799,38.91466283095771]},"properties":{"OBJECTID":152,"EMB_TITLE":"Embassy of the Republic of Korea","COUNTRY":"Korea","ADDRESS":"2450 MASSACHUSETTS AVENUE NW","TELEPHONE":"(202) 939-5600","WEBURL":"http://usa.mofat.go.kr/english/am/usa/main/index.jsp","GIS_ID":"Emb_104","X":395259.47999999998,"Y":138533.54999999999,"ADDRID":218867}},{"type":"Feature","id":153,"geometry":{"type":"Point","coordinates":[-77.056234410376973,38.92267634734015]},"properties":{"OBJECTID":153,"EMB_TITLE":"Embassy of Lebanon","COUNTRY":"Lebanon","ADDRESS":"2560 28TH STREET NW","TELEPHONE":"(202) 939-6300","WEBURL":"http://www.lebanonembassyus.org/","GIS_ID":"Emb_105","X":395123.76000000001,"Y":139423.20000000001,"ADDRID":284413}},{"type":"Feature","id":154,"geometry":{"type":"Point","coordinates":[-77.036019719196617,38.953440275862029]},"properties":{"OBJECTID":154,"EMB_TITLE":"Embassy of the Republic of Liberia","COUNTRY":"Liberia","ADDRESS":"5201 16TH STREET NW","TELEPHONE":"(202) 723-0437","WEBURL":"http://www.embassyofliberia.org","GIS_ID":"Emb_106","X":396878.04999999999,"Y":142837.38,"ADDRID":255869}},{"type":"Feature","id":155,"geometry":{"type":"Point","coordinates":[-77.049146379569748,38.911340213128256]},"properties":{"OBJECTID":155,"EMB_TITLE":"Embassy of Luxembourg","COUNTRY":"Luxembourg","ADDRESS":"2200 MASSACHUSETTS AVENUE NW","TELEPHONE":"(202) 265-4171","WEBURL":"http://washington.mae.lu/en","GIS_ID":"Emb_107","X":395737.72999999998,"Y":138164.44,"ADDRID":234886}},{"type":"Feature","id":156,"geometry":{"type":"Point","coordinates":[-77.048217198775163,38.917686343706038]},"properties":{"OBJECTID":156,"EMB_TITLE":"Embassy of the Republic of Macedonia","COUNTRY":"Macedonia","ADDRESS":"2129 WYOMING AVENUE NW","TELEPHONE":"(202) 667-0501","WEBURL":"http://www.macedonianembassy.org","GIS_ID":"Emb_108","X":395818.69,"Y":138868.87,"ADDRID":242929}},{"type":"Feature","id":157,"geometry":{"type":"Point","coordinates":[-77.048138572680472,38.912414066758664]},"properties":{"OBJECTID":157,"EMB_TITLE":"Embassy of Mali","COUNTRY":"Mali","ADDRESS":"2130 R STREET NW","TELEPHONE":"(202) 332-2249","WEBURL":"http://www.maliembassy.us/","GIS_ID":"Emb_109","X":395825.20000000001,"Y":138283.60000000001,"ADDRID":234903}},{"type":"Feature","id":158,"geometry":{"type":"Point","coordinates":[-77.04669201334525,38.917375815303771]},"properties":{"OBJECTID":158,"EMB_TITLE":"Embassy of Malta","COUNTRY":"Malta","ADDRESS":"2017 CONNECTICUT AVENUE NW","TELEPHONE":"(202) 462-3611","WEBURL":"http://www.foreign.gov.mt/default.aspx?MDIS=504","GIS_ID":"Emb_110","X":395950.94,"Y":138834.33000000002,"ADDRID":277141}},{"type":"Feature","id":159,"geometry":{"type":"Point","coordinates":[-77.047903228076919,38.915656084386363]},"properties":{"OBJECTID":159,"EMB_TITLE":"Embassy of the Islamic Republic of Mauritania","COUNTRY":"Mauritania","ADDRESS":"2129 LEROY PLACE NW","TELEPHONE":"(202) 232-5700","WEBURL":"http://mauritaniaembassy.com/","GIS_ID":"Emb_111","X":395845.79999999999,"Y":138643.48000000001,"ADDRID":235051}},{"type":"Feature","id":160,"geometry":{"type":"Point","coordinates":[-77.044030883819147,38.900747530689912]},"properties":{"OBJECTID":160,"EMB_TITLE":"Embassy of Mexico","COUNTRY":"Mexico","ADDRESS":"1911 PENNSYLVANIA AVENUE NW","TELEPHONE":"(202) 728-1600","WEBURL":"http://embamex.sre.gob.mx/eua/","GIS_ID":"Emb_112","X":396180.83000000002,"Y":136988.34,"ADDRID":218564}},{"type":"Feature","id":161,"geometry":{"type":"Point","coordinates":[-77.058635749393304,38.901992194037724]},"properties":{"OBJECTID":161,"EMB_TITLE":"Embassy of Sweden","COUNTRY":"Sweden","ADDRESS":"2900 K STREET NW","TELEPHONE":"(202) 467-2600","WEBURL":"http://www.swedenabroad.com/en-GB/Embassies/Washington/","GIS_ID":"Emb_139","X":394914.04999999999,"Y":137127.22,"ADDRID":273874}},{"type":"Feature","id":162,"geometry":{"type":"Point","coordinates":[-77.057940435851478,38.928497320824455]},"properties":{"OBJECTID":162,"EMB_TITLE":"Embassy of Switzerland","COUNTRY":"Switzerland","ADDRESS":"2900 CATHEDRAL AVENUE NW","TELEPHONE":"(202) 745-7900","WEBURL":"http://www.swissemb.org","GIS_ID":"Emb_140","X":394976.22999999998,"Y":140069.47,"ADDRID":220175}},{"type":"Feature","id":163,"geometry":{"type":"Point","coordinates":[-77.050400033024616,38.917041326749313]},"properties":{"OBJECTID":163,"EMB_TITLE":"Embassy of the Syria","COUNTRY":"Syria","ADDRESS":"2215 WYOMING AVENUE NW","TELEPHONE":"(202) 232-6316","WEBURL":"http://www.syrianembassy.us/","GIS_ID":"Emb_141","X":395629.35000000003,"Y":138797.37,"ADDRID":234992}},{"type":"Feature","id":164,"geometry":{"type":"Point","coordinates":[-77.063292199964636,38.903383266994481]},"properties":{"OBJECTID":164,"EMB_TITLE":"Royal Thai Embassy","COUNTRY":"Thailand","ADDRESS":"1024 WISCONSIN AVENUE NW","TELEPHONE":"(202) 944-3600","WEBURL":"http://www.thaiembdc.org/wp/","GIS_ID":"Emb_142","X":394510.25,"Y":137281.91,"ADDRID":276426}},{"type":"Feature","id":165,"geometry":{"type":"Point","coordinates":[-77.038993730483242,38.907760793005728]},"properties":{"OBJECTID":165,"EMB_TITLE":"Embassy of the Republic of Trinidad and Tobago","COUNTRY":"Trinidad and Tobago","ADDRESS":"1708 MASSACHUSETTS AVENUE NW","TELEPHONE":"(202) 467-6490","WEBURL":"http://www.ttembassy.org","GIS_ID":"Emb_143","X":396618.10000000003,"Y":137766.67000000001,"ADDRID":241759}},{"type":"Feature","id":166,"geometry":{"type":"Point","coordinates":[-77.03496243507405,38.907008160231328]},"properties":{"OBJECTID":166,"EMB_TITLE":"Embassy of the Republic of Tunisia","COUNTRY":"Tunisia","ADDRESS":"1515 MASSACHUSETTS AVENUE NW","TELEPHONE":"(202) 862-1850","WEBURL":"http://www.tunconsusa.org/","GIS_ID":"Emb_144","X":396967.72000000003,"Y":137682.98000000001,"ADDRID":242320}},{"type":"Feature","id":167,"geometry":{"type":"Point","coordinates":[-77.055878108070161,38.91653662082313]},"properties":{"OBJECTID":167,"EMB_TITLE":"Embassy of the Republic of Turkey","COUNTRY":"Turkey","ADDRESS":"2525 MASSACHUSETTS AVENUE NW","TELEPHONE":"(202) 612-6700","WEBURL":"http://www.turkishembassy.org/","GIS_ID":"Emb_145","X":395154.23999999999,"Y":138741.62,"ADDRID":218950}},{"type":"Feature","id":168,"geometry":{"type":"Point","coordinates":[-77.036015618098205,38.961078023927094]},"properties":{"OBJECTID":168,"EMB_TITLE":"Embassy of the Republic of Uganda","COUNTRY":"Uganda","ADDRESS":"5911 16TH STREET NW","TELEPHONE":"(202) 726-7100","WEBURL":"http://www.ugandaembassy.com/","GIS_ID":"Emb_146","X":396878.73999999999,"Y":143685.23999999999,"ADDRID":256082}},{"type":"Feature","id":169,"geometry":{"type":"Point","coordinates":[-77.067471454406487,38.904935049645701]},"properties":{"OBJECTID":169,"EMB_TITLE":"Embassy of Ukraine","COUNTRY":"Ukraine","ADDRESS":"3350 M STREET NW","TELEPHONE":"(202) 349-2920","WEBURL":"http://www.mfa.gov.ua/usa/en/","GIS_ID":"Emb_147","X":394147.87,"Y":137454.42999999999,"ADDRID":294564}},{"type":"Feature","id":170,"geometry":{"type":"Point","coordinates":[-77.040588084834866,38.908274806837625]},"properties":{"OBJECTID":170,"EMB_TITLE":"Embassy of Uzbekistan","COUNTRY":"Uzbekistan","ADDRESS":"1746 MASSACHUSETTS AVENUE NW","TELEPHONE":"(202) 887-5300","WEBURL":"http://www.uzbekistan.org/","GIS_ID":"Emb_148","X":396479.84000000003,"Y":137823.79000000001,"ADDRID":241734}},{"type":"Feature","id":171,"geometry":{"type":"Point","coordinates":[-77.058934679016559,38.903800201131183]},"properties":{"OBJECTID":171,"EMB_TITLE":"Embassy of the Bolivarian Republic of Venezuela","COUNTRY":"Venezuela","ADDRESS":"1099 30TH STREET NW","TELEPHONE":"(202) 342-2214","WEBURL":"http://venezuela-us.org/","GIS_ID":"Emb_149","X":394888.25,"Y":137327.94,"ADDRID":273818}},{"type":"Feature","id":172,"geometry":{"type":"Point","coordinates":[-77.044497466048696,38.906711245454915]},"properties":{"OBJECTID":172,"EMB_TITLE":"Embassy of the Socialist Republic of Vietnam","COUNTRY":"Vietnam","ADDRESS":"1233 20TH STREET NW","TELEPHONE":"(202) 861-0737","WEBURL":"http://www.vietnamembassy-usa.org/","GIS_ID":"Emb_150","X":396140.67999999999,"Y":137650.38,"ADDRID":243288}},{"type":"Feature","id":173,"geometry":{"type":"Point","coordinates":[-77.053447163175235,38.914681230022012]},"properties":{"OBJECTID":173,"EMB_TITLE":"Embassy of the Republic of Zambia","COUNTRY":"Zambia","ADDRESS":"2419 MASSACHUSETTS AVENUE NW","TELEPHONE":"(202) 265-9717","WEBURL":"http://www.zambiaembassy.org/","GIS_ID":"Emb_152","X":395364.94,"Y":138535.53,"ADDRID":275736}},{"type":"Feature","id":174,"geometry":{"type":"Point","coordinates":[-77.065837652154698,38.941251150227536]},"properties":{"OBJECTID":174,"EMB_TITLE":"Embassy of the Kingdom of Bahrain","COUNTRY":"Bahrain","ADDRESS":"3502 INTERNATIONAL DRIVE NW","TELEPHONE":"(202) 342-1111","WEBURL":"http://www.bahrainembassy.org/","GIS_ID":"Emb_153","X":394292.48999999999,"Y":141485.72,"ADDRID":294571}},{"type":"Feature","id":175,"geometry":{"type":"Point","coordinates":[-77.059161649246349,38.940595673071876]},"properties":{"OBJECTID":175,"EMB_TITLE":"Embassy of the State of Kuwait","COUNTRY":"Kuwait","ADDRESS":"2940 TILDEN STREET NW","TELEPHONE":"(202) 966-0702","WEBURL":"http://www.kuwaitembassy.us/","GIS_ID":"Emb_154","X":394871.21000000002,"Y":141412.56,"ADDRID":219299}},{"type":"Feature","id":176,"geometry":{"type":"Point","coordinates":[-77.068149526015873,38.942274518532699]},"properties":{"OBJECTID":176,"EMB_TITLE":"Embassy of the Republic of Ghana","COUNTRY":"Ghana","ADDRESS":"3512 INTERNATIONAL DRIVE NW","TELEPHONE":"(202) 686-4520","WEBURL":"http://www.ghanaembassy.org/","GIS_ID":"Emb_155","X":394092.15000000002,"Y":141599.47,"ADDRID":294575}},{"type":"Feature","id":177,"geometry":{"type":"Point","coordinates":[-77.068435900326008,38.942712874863943]},"properties":{"OBJECTID":177,"EMB_TITLE":"Embassy of Israel","COUNTRY":"Israel","ADDRESS":"3514 INTERNATIONAL DRIVE NW","TELEPHONE":"(202) 364-5500","WEBURL":"http://www.israelemb.org/","GIS_ID":"Emb_156","X":394067.35999999999,"Y":141648.14999999999,"ADDRID":294560}}]}